[
  {
    "name": "Amsterdam",
    "country": "Netherlands",
    "lat": 52.3676,
    "lon": 4.9041
  },
  {
    "name": "Singapore",
    "country": "Singapore",
    "lat": 1.3521,
    "lon": 103.8198
  },
  {
    "name": "Paris",
    "country": "France",
    "lat": 48.8566,
    "lon": 2.3522
  },
  {
    "name": "Chicago",
    "country": "United States",
    "lat": 41.8781,
    "lon": -87.6298
  },
  {
    "name": "Helsinki",
    "country": "Finland",
    "lat": 60.1699,
    "lon": 24.9384
  }
]
