[
  {
    "name": "Bogotá",
    "country": "Colombia",
    "lat": 4.711,
    "lon": -74.0721
  },
  {
    "name": "Athens",
    "country": "Greece",
    "lat": 37.9838,
    "lon": 23.7275
  },
  {
    "name": "Lisbon",
    "country": "Portugal",
    "lat": 38.7223,
    "lon": -9.1393
  },
  {
    "name": "Istanbul",
    "country": "Turkey",
    "lat": 41.0082,
    "lon": 28.9784
  },
  {
    "name": "Los Angeles",
    "country": "United States",
    "lat": 34.0522,
    "lon": -118.2437
  }
]
