[
  {
    "name": "Chicago",
    "country": "United States",
    "lat": 41.8781,
    "lon": -87.6298
  },
  {
    "name": "Berlin",
    "country": "Germany",
    "lat": 52.52,
    "lon": 13.405
  },
  {
    "name": "Mexico City",
    "country": "Mexico",
    "lat": 19.4326,
    "lon": -99.1332
  },
  {
    "name": "Cairo",
    "country": "Egypt",
    "lat": 30.0444,
    "lon": 31.2357
  },
  {
    "name": "Shanghai",
    "country": "China",
    "lat": 31.2304,
    "lon": 121.4737
  }
]
