[
  {
    "name": "Vienna",
    "country": "Austria",
    "lat": 48.2082,
    "lon": 16.3738
  },
  {
    "name": "Berlin",
    "country": "Germany",
    "lat": 52.52,
    "lon": 13.405
  },
  {
    "name": "Prague",
    "country": "Czechia",
    "lat": 50.0755,
    "lon": 14.4378
  },
  {
    "name": "Lisbon",
    "country": "Portugal",
    "lat": 38.7223,
    "lon": -9.1393
  },
  {
    "name": "Rome",
    "country": "Italy",
    "lat": 41.9028,
    "lon": 12.4964
  }
]
