[
  {
    "name": "Auckland",
    "country": "New Zealand",
    "lat": -36.8509,
    "lon": 174.7645
  },
  {
    "name": "Lima",
    "country": "Peru",
    "lat": -12.0464,
    "lon": -77.0428
  },
  {
    "name": "Anchorage",
    "country": "United States",
    "lat": 61.2181,
    "lon": -149.9003
  },
  {
    "name": "Amsterdam",
    "country": "Netherlands",
    "lat": 52.3676,
    "lon": 4.9041
  },
  {
    "name": "Stockholm",
    "country": "Sweden",
    "lat": 59.3293,
    "lon": 18.0686
  }
]
