[
  {
    "name": "Seoul",
    "country": "South Korea",
    "lat": 37.5665,
    "lon": 126.978
  },
  {
    "name": "Istanbul",
    "country": "Turkey",
    "lat": 41.0082,
    "lon": 28.9784
  },
  {
    "name": "Honolulu",
    "country": "United States",
    "lat": 21.3099,
    "lon": -157.8581
  },
  {
    "name": "São Paulo",
    "country": "Brazil",
    "lat": -23.5505,
    "lon": -46.6333
  },
  {
    "name": "Shanghai",
    "country": "China",
    "lat": 31.2304,
    "lon": 121.4737
  }
]
