[
  {
    "name": "Athens",
    "country": "Greece",
    "lat": 37.9838,
    "lon": 23.7275
  },
  {
    "name": "Lima",
    "country": "Peru",
    "lat": -12.0464,
    "lon": -77.0428
  },
  {
    "name": "Bangkok",
    "country": "Thailand",
    "lat": 13.7563,
    "lon": 100.5018
  },
  {
    "name": "Osaka",
    "country": "Japan",
    "lat": 34.6937,
    "lon": 135.5023
  },
  {
    "name": "Seoul",
    "country": "South Korea",
    "lat": 37.5665,
    "lon": 126.978
  }
]
