[
  {
    "name": "Budapest",
    "country": "Hungary",
    "lat": 47.4979,
    "lon": 19.0402
  },
  {
    "name": "Athens",
    "country": "Greece",
    "lat": 37.9838,
    "lon": 23.7275
  },
  {
    "name": "Karachi",
    "country": "Pakistan",
    "lat": 24.8607,
    "lon": 67.0011
  },
  {
    "name": "Paris",
    "country": "France",
    "lat": 48.8566,
    "lon": 2.3522
  },
  {
    "name": "Reykjavík",
    "country": "Iceland",
    "lat": 64.1466,
    "lon": -21.9426
  }
]
