[
  {
    "name": "Riyadh",
    "country": "Saudi Arabia",
    "lat": 24.7136,
    "lon": 46.6753
  },
  {
    "name": "Vienna",
    "country": "Austria",
    "lat": 48.2082,
    "lon": 16.3738
  },
  {
    "name": "Istanbul",
    "country": "Turkey",
    "lat": 41.0082,
    "lon": 28.9784
  },
  {
    "name": "Cairo",
    "country": "Egypt",
    "lat": 30.0444,
    "lon": 31.2357
  },
  {
    "name": "Berlin",
    "country": "Germany",
    "lat": 52.52,
    "lon": 13.405
  }
]
