[
  {
    "name": "Madrid",
    "country": "Spain",
    "lat": 40.4168,
    "lon": -3.7038
  },
  {
    "name": "Hong Kong",
    "country": "China",
    "lat": 22.3193,
    "lon": 114.1694
  },
  {
    "name": "Sydney",
    "country": "Australia",
    "lat": -33.8688,
    "lon": 151.2093
  },
  {
    "name": "Reykjavík",
    "country": "Iceland",
    "lat": 64.1466,
    "lon": -21.9426
  },
  {
    "name": "Shanghai",
    "country": "China",
    "lat": 31.2304,
    "lon": 121.4737
  }
]
