[
  {
    "name": "Shanghai",
    "country": "China",
    "lat": 31.2304,
    "lon": 121.4737
  },
  {
    "name": "Bangkok",
    "country": "Thailand",
    "lat": 13.7563,
    "lon": 100.5018
  },
  {
    "name": "Johannesburg",
    "country": "South Africa",
    "lat": -26.2041,
    "lon": 28.0473
  },
  {
    "name": "Santiago",
    "country": "Chile",
    "lat": -33.4489,
    "lon": -70.6693
  },
  {
    "name": "Lima",
    "country": "Peru",
    "lat": -12.0464,
    "lon": -77.0428
  }
]
