[
  {
    "name": "Mexico City",
    "country": "Mexico",
    "lat": 19.4326,
    "lon": -99.1332
  },
  {
    "name": "Chengdu",
    "country": "China",
    "lat": 30.5728,
    "lon": 104.0668
  },
  {
    "name": "New York",
    "country": "United States",
    "lat": 40.7128,
    "lon": -74.006
  },
  {
    "name": "Vancouver",
    "country": "Canada",
    "lat": 49.2827,
    "lon": -123.1207
  },
  {
    "name": "Mumbai",
    "country": "India",
    "lat": 19.076,
    "lon": 72.8777
  }
]
