[
  {
    "name": "New York",
    "country": "United States",
    "lat": 40.7128,
    "lon": -74.006
  },
  {
    "name": "Jakarta",
    "country": "Indonesia",
    "lat": -6.2088,
    "lon": 106.8456
  },
  {
    "name": "Osaka",
    "country": "Japan",
    "lat": 34.6937,
    "lon": 135.5023
  },
  {
    "name": "Seoul",
    "country": "South Korea",
    "lat": 37.5665,
    "lon": 126.978
  },
  {
    "name": "Dhaka",
    "country": "Bangladesh",
    "lat": 23.8103,
    "lon": 90.4125
  }
]
