[
  {
    "name": "Budapest",
    "country": "Hungary",
    "lat": 47.4979,
    "lon": 19.0402
  },
  {
    "name": "Auckland",
    "country": "New Zealand",
    "lat": -36.8509,
    "lon": 174.7645
  },
  {
    "name": "Shanghai",
    "country": "China",
    "lat": 31.2304,
    "lon": 121.4737
  },
  {
    "name": "Manila",
    "country": "Philippines",
    "lat": 14.5995,
    "lon": 120.9842
  },
  {
    "name": "Lagos",
    "country": "Nigeria",
    "lat": 6.5244,
    "lon": 3.3792
  }
]
