[
  {
    "name": "Los Angeles",
    "country": "United States",
    "lat": 34.0522,
    "lon": -118.2437
  },
  {
    "name": "Cape Town",
    "country": "South Africa",
    "lat": -33.9249,
    "lon": 18.4241
  },
  {
    "name": "Nagoya",
    "country": "Japan",
    "lat": 35.1815,
    "lon": 136.9066
  },
  {
    "name": "Bangkok",
    "country": "Thailand",
    "lat": 13.7563,
    "lon": 100.5018
  },
  {
    "name": "Manila",
    "country": "Philippines",
    "lat": 14.5995,
    "lon": 120.9842
  }
]
