[
  {
    "name": "Athens",
    "country": "Greece",
    "lat": 37.9838,
    "lon": 23.7275
  },
  {
    "name": "Amsterdam",
    "country": "Netherlands",
    "lat": 52.3676,
    "lon": 4.9041
  },
  {
    "name": "Auckland",
    "country": "New Zealand",
    "lat": -36.8509,
    "lon": 174.7645
  },
  {
    "name": "Casablanca",
    "country": "Morocco",
    "lat": 33.5731,
    "lon": -7.5898
  },
  {
    "name": "Cairo",
    "country": "Egypt",
    "lat": 30.0444,
    "lon": 31.2357
  }
]
