[
  {
    "name": "Cairo",
    "country": "Egypt",
    "lat": 30.0444,
    "lon": 31.2357
  },
  {
    "name": "Bogotá",
    "country": "Colombia",
    "lat": 4.711,
    "lon": -74.0721
  },
  {
    "name": "Amsterdam",
    "country": "Netherlands",
    "lat": 52.3676,
    "lon": 4.9041
  },
  {
    "name": "Nairobi",
    "country": "Kenya",
    "lat": -1.2921,
    "lon": 36.8219
  },
  {
    "name": "Osaka",
    "country": "Japan",
    "lat": 34.6937,
    "lon": 135.5023
  }
]
