[
  {
    "name": "London",
    "country": "United Kingdom",
    "lat": 51.5074,
    "lon": -0.1278
  },
  {
    "name": "Johannesburg",
    "country": "South Africa",
    "lat": -26.2041,
    "lon": 28.0473
  },
  {
    "name": "São Paulo",
    "country": "Brazil",
    "lat": -23.5505,
    "lon": -46.6333
  },
  {
    "name": "Karachi",
    "country": "Pakistan",
    "lat": 24.8607,
    "lon": 67.0011
  },
  {
    "name": "Manila",
    "country": "Philippines",
    "lat": 14.5995,
    "lon": 120.9842
  }
]
