[
  {
    "name": "Cape Town",
    "country": "South Africa",
    "lat": -33.9249,
    "lon": 18.4241
  },
  {
    "name": "Riyadh",
    "country": "Saudi Arabia",
    "lat": 24.7136,
    "lon": 46.6753
  },
  {
    "name": "Oslo",
    "country": "Norway",
    "lat": 59.9139,
    "lon": 10.7522
  },
  {
    "name": "Mexico City",
    "country": "Mexico",
    "lat": 19.4326,
    "lon": -99.1332
  },
  {
    "name": "Havana",
    "country": "Cuba",
    "lat": 23.1136,
    "lon": -82.3666
  }
]
