[
  {
    "name": "Mexico City",
    "country": "Mexico",
    "lat": 19.4326,
    "lon": -99.1332
  },
  {
    "name": "Berlin",
    "country": "Germany",
    "lat": 52.52,
    "lon": 13.405
  },
  {
    "name": "Anchorage",
    "country": "United States",
    "lat": 61.2181,
    "lon": -149.9003
  },
  {
    "name": "Singapore",
    "country": "Singapore",
    "lat": 1.3521,
    "lon": 103.8198
  },
  {
    "name": "Dubai",
    "country": "United Arab Emirates",
    "lat": 25.2048,
    "lon": 55.2708
  }
]
