[
  {
    "name": "Johannesburg",
    "country": "South Africa",
    "lat": -26.2041,
    "lon": 28.0473
  },
  {
    "name": "Madrid",
    "country": "Spain",
    "lat": 40.4168,
    "lon": -3.7038
  },
  {
    "name": "Hong Kong",
    "country": "China",
    "lat": 22.3193,
    "lon": 114.1694
  },
  {
    "name": "Buenos Aires",
    "country": "Argentina",
    "lat": -34.6037,
    "lon": -58.3816
  },
  {
    "name": "Singapore",
    "country": "Singapore",
    "lat": 1.3521,
    "lon": 103.8198
  }
]
