[
  {
    "name": "Buenos Aires",
    "country": "Argentina",
    "lat": -34.6037,
    "lon": -58.3816
  },
  {
    "name": "Lisbon",
    "country": "Portugal",
    "lat": 38.7223,
    "lon": -9.1393
  },
  {
    "name": "Los Angeles",
    "country": "United States",
    "lat": 34.0522,
    "lon": -118.2437
  },
  {
    "name": "Johannesburg",
    "country": "South Africa",
    "lat": -26.2041,
    "lon": 28.0473
  },
  {
    "name": "Prague",
    "country": "Czechia",
    "lat": 50.0755,
    "lon": 14.4378
  }
]
