[
  {
    "name": "Bogotá",
    "country": "Colombia",
    "lat": 4.711,
    "lon": -74.0721
  },
  {
    "name": "Lisbon",
    "country": "Portugal",
    "lat": 38.7223,
    "lon": -9.1393
  },
  {
    "name": "Bangkok",
    "country": "Thailand",
    "lat": 13.7563,
    "lon": 100.5018
  },
  {
    "name": "Havana",
    "country": "Cuba",
    "lat": 23.1136,
    "lon": -82.3666
  },
  {
    "name": "Seoul",
    "country": "South Korea",
    "lat": 37.5665,
    "lon": 126.978
  }
]
