[
  {
    "name": "Warsaw",
    "country": "Poland",
    "lat": 52.2297,
    "lon": 21.0122
  },
  {
    "name": "Santiago",
    "country": "Chile",
    "lat": -33.4489,
    "lon": -70.6693
  },
  {
    "name": "Madrid",
    "country": "Spain",
    "lat": 40.4168,
    "lon": -3.7038
  },
  {
    "name": "Tehran",
    "country": "Iran",
    "lat": 35.6892,
    "lon": 51.389
  },
  {
    "name": "Toronto",
    "country": "Canada",
    "lat": 43.6532,
    "lon": -79.3832
  }
]
