[
  {
    "name": "Prague",
    "country": "Czechia",
    "lat": 50.0755,
    "lon": 14.4378
  },
  {
    "name": "Tokyo",
    "country": "Japan",
    "lat": 35.6762,
    "lon": 139.6503
  },
  {
    "name": "Oslo",
    "country": "Norway",
    "lat": 59.9139,
    "lon": 10.7522
  },
  {
    "name": "Mumbai",
    "country": "India",
    "lat": 19.076,
    "lon": 72.8777
  },
  {
    "name": "Tehran",
    "country": "Iran",
    "lat": 35.6892,
    "lon": 51.389
  }
]
