[
  {
    "name": "Chicago",
    "country": "United States",
    "lat": 41.8781,
    "lon": -87.6298
  },
  {
    "name": "Cape Town",
    "country": "South Africa",
    "lat": -33.9249,
    "lon": 18.4241
  },
  {
    "name": "Shanghai",
    "country": "China",
    "lat": 31.2304,
    "lon": 121.4737
  },
  {
    "name": "London",
    "country": "United Kingdom",
    "lat": 51.5074,
    "lon": -0.1278
  },
  {
    "name": "Rome",
    "country": "Italy",
    "lat": 41.9028,
    "lon": 12.4964
  }
]
