[
  {
    "name": "Chicago",
    "country": "United States",
    "lat": 41.8781,
    "lon": -87.6298
  },
  {
    "name": "Chengdu",
    "country": "China",
    "lat": 30.5728,
    "lon": 104.0668
  },
  {
    "name": "Casablanca",
    "country": "Morocco",
    "lat": 33.5731,
    "lon": -7.5898
  },
  {
    "name": "New York",
    "country": "United States",
    "lat": 40.7128,
    "lon": -74.006
  },
  {
    "name": "Stockholm",
    "country": "Sweden",
    "lat": 59.3293,
    "lon": 18.0686
  }
]
