[
  {
    "name": "Cairo",
    "country": "Egypt",
    "lat": 30.0444,
    "lon": 31.2357
  },
  {
    "name": "Beijing",
    "country": "China",
    "lat": 39.9042,
    "lon": 116.4074
  },
  {
    "name": "Osaka",
    "country": "Japan",
    "lat": 34.6937,
    "lon": 135.5023
  },
  {
    "name": "Manila",
    "country": "Philippines",
    "lat": 14.5995,
    "lon": 120.9842
  },
  {
    "name": "Lisbon",
    "country": "Portugal",
    "lat": 38.7223,
    "lon": -9.1393
  }
]
