[
  {
    "name": "Lisbon",
    "country": "Portugal",
    "lat": 38.7223,
    "lon": -9.1393
  },
  {
    "name": "Istanbul",
    "country": "Turkey",
    "lat": 41.0082,
    "lon": 28.9784
  },
  {
    "name": "Buenos Aires",
    "country": "Argentina",
    "lat": -34.6037,
    "lon": -58.3816
  },
  {
    "name": "Chengdu",
    "country": "China",
    "lat": 30.5728,
    "lon": 104.0668
  },
  {
    "name": "Vancouver",
    "country": "Canada",
    "lat": 49.2827,
    "lon": -123.1207
  }
]
