[
  {
    "name": "Anchorage",
    "country": "United States",
    "lat": 61.2181,
    "lon": -149.9003
  },
  {
    "name": "Vancouver",
    "country": "Canada",
    "lat": 49.2827,
    "lon": -123.1207
  },
  {
    "name": "Mumbai",
    "country": "India",
    "lat": 19.076,
    "lon": 72.8777
  },
  {
    "name": "Tokyo",
    "country": "Japan",
    "lat": 35.6762,
    "lon": 139.6503
  },
  {
    "name": "Istanbul",
    "country": "Turkey",
    "lat": 41.0082,
    "lon": 28.9784
  }
]
