[
  {
    "name": "Vienna",
    "country": "Austria",
    "lat": 48.2082,
    "lon": 16.3738
  },
  {
    "name": "Istanbul",
    "country": "Turkey",
    "lat": 41.0082,
    "lon": 28.9784
  },
  {
    "name": "Nairobi",
    "country": "Kenya",
    "lat": -1.2921,
    "lon": 36.8219
  },
  {
    "name": "Oslo",
    "country": "Norway",
    "lat": 59.9139,
    "lon": 10.7522
  },
  {
    "name": "Dublin",
    "country": "Ireland",
    "lat": 53.3498,
    "lon": -6.2603
  }
]
