[
  {
    "name": "Lima",
    "country": "Peru",
    "lat": -12.0464,
    "lon": -77.0428
  },
  {
    "name": "Cairo",
    "country": "Egypt",
    "lat": 30.0444,
    "lon": 31.2357
  },
  {
    "name": "Santiago",
    "country": "Chile",
    "lat": -33.4489,
    "lon": -70.6693
  },
  {
    "name": "Paris",
    "country": "France",
    "lat": 48.8566,
    "lon": 2.3522
  },
  {
    "name": "Bangkok",
    "country": "Thailand",
    "lat": 13.7563,
    "lon": 100.5018
  }
]
