[
  {
    "name": "Beijing",
    "country": "China",
    "lat": 39.9042,
    "lon": 116.4074
  },
  {
    "name": "Warsaw",
    "country": "Poland",
    "lat": 52.2297,
    "lon": 21.0122
  },
  {
    "name": "Dhaka",
    "country": "Bangladesh",
    "lat": 23.8103,
    "lon": 90.4125
  },
  {
    "name": "Kolkata",
    "country": "India",
    "lat": 22.5726,
    "lon": 88.3639
  },
  {
    "name": "Lima",
    "country": "Peru",
    "lat": -12.0464,
    "lon": -77.0428
  }
]
