[
  {
    "name": "Berlin",
    "country": "Germany",
    "lat": 52.52,
    "lon": 13.405
  },
  {
    "name": "Singapore",
    "country": "Singapore",
    "lat": 1.3521,
    "lon": 103.8198
  },
  {
    "name": "Riyadh",
    "country": "Saudi Arabia",
    "lat": 24.7136,
    "lon": 46.6753
  },
  {
    "name": "Chengdu",
    "country": "China",
    "lat": 30.5728,
    "lon": 104.0668
  },
  {
    "name": "Tehran",
    "country": "Iran",
    "lat": 35.6892,
    "lon": 51.389
  }
]
