[
  {
    "name": "Dubai",
    "country": "United Arab Emirates",
    "lat": 25.2048,
    "lon": 55.2708
  },
  {
    "name": "Cape Town",
    "country": "South Africa",
    "lat": -33.9249,
    "lon": 18.4241
  },
  {
    "name": "Melbourne",
    "country": "Australia",
    "lat": -37.8136,
    "lon": 144.9631
  },
  {
    "name": "Kolkata",
    "country": "India",
    "lat": 22.5726,
    "lon": 88.3639
  },
  {
    "name": "Lisbon",
    "country": "Portugal",
    "lat": 38.7223,
    "lon": -9.1393
  }
]
