[
  {
    "name": "Amsterdam",
    "country": "Netherlands",
    "lat": 52.3676,
    "lon": 4.9041
  },
  {
    "name": "Johannesburg",
    "country": "South Africa",
    "lat": -26.2041,
    "lon": 28.0473
  },
  {
    "name": "Santiago",
    "country": "Chile",
    "lat": -33.4489,
    "lon": -70.6693
  },
  {
    "name": "Cairo",
    "country": "Egypt",
    "lat": 30.0444,
    "lon": 31.2357
  },
  {
    "name": "Athens",
    "country": "Greece",
    "lat": 37.9838,
    "lon": 23.7275
  }
]
