[
  {
    "name": "Santiago",
    "country": "Chile",
    "lat": -33.4489,
    "lon": -70.6693
  },
  {
    "name": "Havana",
    "country": "Cuba",
    "lat": 23.1136,
    "lon": -82.3666
  },
  {
    "name": "Budapest",
    "country": "Hungary",
    "lat": 47.4979,
    "lon": 19.0402
  },
  {
    "name": "Vienna",
    "country": "Austria",
    "lat": 48.2082,
    "lon": 16.3738
  },
  {
    "name": "Rome",
    "country": "Italy",
    "lat": 41.9028,
    "lon": 12.4964
  }
]
