[
  {
    "name": "Dublin",
    "country": "Ireland",
    "lat": 53.3498,
    "lon": -6.2603
  },
  {
    "name": "Vienna",
    "country": "Austria",
    "lat": 48.2082,
    "lon": 16.3738
  },
  {
    "name": "Cape Town",
    "country": "South Africa",
    "lat": -33.9249,
    "lon": 18.4241
  },
  {
    "name": "Moscow",
    "country": "Russia",
    "lat": 55.7558,
    "lon": 37.6173
  },
  {
    "name": "Johannesburg",
    "country": "South Africa",
    "lat": -26.2041,
    "lon": 28.0473
  }
]
