[
  {
    "name": "São Paulo",
    "country": "Brazil",
    "lat": -23.5505,
    "lon": -46.6333
  },
  {
    "name": "Vancouver",
    "country": "Canada",
    "lat": 49.2827,
    "lon": -123.1207
  },
  {
    "name": "Nairobi",
    "country": "Kenya",
    "lat": -1.2921,
    "lon": 36.8219
  },
  {
    "name": "Kolkata",
    "country": "India",
    "lat": 22.5726,
    "lon": 88.3639
  },
  {
    "name": "Melbourne",
    "country": "Australia",
    "lat": -37.8136,
    "lon": 144.9631
  }
]
