[
  {
    "name": "Toronto",
    "country": "Canada",
    "lat": 43.6532,
    "lon": -79.3832
  },
  {
    "name": "Reykjavík",
    "country": "Iceland",
    "lat": 64.1466,
    "lon": -21.9426
  },
  {
    "name": "Madrid",
    "country": "Spain",
    "lat": 40.4168,
    "lon": -3.7038
  },
  {
    "name": "Berlin",
    "country": "Germany",
    "lat": 52.52,
    "lon": 13.405
  },
  {
    "name": "Lima",
    "country": "Peru",
    "lat": -12.0464,
    "lon": -77.0428
  }
]
