[
  {
    "name": "Bogotá",
    "country": "Colombia",
    "lat": 4.711,
    "lon": -74.0721
  },
  {
    "name": "Budapest",
    "country": "Hungary",
    "lat": 47.4979,
    "lon": 19.0402
  },
  {
    "name": "Dhaka",
    "country": "Bangladesh",
    "lat": 23.8103,
    "lon": 90.4125
  },
  {
    "name": "Kolkata",
    "country": "India",
    "lat": 22.5726,
    "lon": 88.3639
  },
  {
    "name": "Cairo",
    "country": "Egypt",
    "lat": 30.0444,
    "lon": 31.2357
  }
]
