[
  {
    "name": "Dublin",
    "country": "Ireland",
    "lat": 53.3498,
    "lon": -6.2603
  },
  {
    "name": "Moscow",
    "country": "Russia",
    "lat": 55.7558,
    "lon": 37.6173
  },
  {
    "name": "Honolulu",
    "country": "United States",
    "lat": 21.3099,
    "lon": -157.8581
  },
  {
    "name": "Vienna",
    "country": "Austria",
    "lat": 48.2082,
    "lon": 16.3738
  },
  {
    "name": "Reykjavík",
    "country": "Iceland",
    "lat": 64.1466,
    "lon": -21.9426
  }
]
