[
  {
    "name": "Tehran",
    "country": "Iran",
    "lat": 35.6892,
    "lon": 51.389
  },
  {
    "name": "Osaka",
    "country": "Japan",
    "lat": 34.6937,
    "lon": 135.5023
  },
  {
    "name": "Buenos Aires",
    "country": "Argentina",
    "lat": -34.6037,
    "lon": -58.3816
  },
  {
    "name": "São Paulo",
    "country": "Brazil",
    "lat": -23.5505,
    "lon": -46.6333
  },
  {
    "name": "Rio de Janeiro",
    "country": "Brazil",
    "lat": -22.9068,
    "lon": -43.1729
  }
]
