[
  {
    "name": "Lima",
    "country": "Peru",
    "lat": -12.0464,
    "lon": -77.0428
  },
  {
    "name": "Havana",
    "country": "Cuba",
    "lat": 23.1136,
    "lon": -82.3666
  },
  {
    "name": "Hong Kong",
    "country": "China",
    "lat": 22.3193,
    "lon": 114.1694
  },
  {
    "name": "Berlin",
    "country": "Germany",
    "lat": 52.52,
    "lon": 13.405
  },
  {
    "name": "Oslo",
    "country": "Norway",
    "lat": 59.9139,
    "lon": 10.7522
  }
]
