[
  {
    "name": "Amsterdam",
    "country": "Netherlands",
    "lat": 52.3676,
    "lon": 4.9041
  },
  {
    "name": "Oslo",
    "country": "Norway",
    "lat": 59.9139,
    "lon": 10.7522
  },
  {
    "name": "Warsaw",
    "country": "Poland",
    "lat": 52.2297,
    "lon": 21.0122
  },
  {
    "name": "Cairo",
    "country": "Egypt",
    "lat": 30.0444,
    "lon": 31.2357
  },
  {
    "name": "Auckland",
    "country": "New Zealand",
    "lat": -36.8509,
    "lon": 174.7645
  }
]
