[
  {
    "name": "Rio de Janeiro",
    "country": "Brazil",
    "lat": -22.9068,
    "lon": -43.1729
  },
  {
    "name": "Kolkata",
    "country": "India",
    "lat": 22.5726,
    "lon": 88.3639
  },
  {
    "name": "Tehran",
    "country": "Iran",
    "lat": 35.6892,
    "lon": 51.389
  },
  {
    "name": "Melbourne",
    "country": "Australia",
    "lat": -37.8136,
    "lon": 144.9631
  },
  {
    "name": "Santiago",
    "country": "Chile",
    "lat": -33.4489,
    "lon": -70.6693
  }
]
