[
  {
    "name": "Helsinki",
    "country": "Finland",
    "lat": 60.1699,
    "lon": 24.9384
  },
  {
    "name": "Rio de Janeiro",
    "country": "Brazil",
    "lat": -22.9068,
    "lon": -43.1729
  },
  {
    "name": "Seoul",
    "country": "South Korea",
    "lat": 37.5665,
    "lon": 126.978
  },
  {
    "name": "Karachi",
    "country": "Pakistan",
    "lat": 24.8607,
    "lon": 67.0011
  },
  {
    "name": "Bogotá",
    "country": "Colombia",
    "lat": 4.711,
    "lon": -74.0721
  }
]
