[
  {
    "name": "Bangkok",
    "country": "Thailand",
    "lat": 13.7563,
    "lon": 100.5018
  },
  {
    "name": "Prague",
    "country": "Czechia",
    "lat": 50.0755,
    "lon": 14.4378
  },
  {
    "name": "Lisbon",
    "country": "Portugal",
    "lat": 38.7223,
    "lon": -9.1393
  },
  {
    "name": "Helsinki",
    "country": "Finland",
    "lat": 60.1699,
    "lon": 24.9384
  },
  {
    "name": "Moscow",
    "country": "Russia",
    "lat": 55.7558,
    "lon": 37.6173
  }
]
