[
  {
    "name": "Reykjavík",
    "country": "Iceland",
    "lat": 64.1466,
    "lon": -21.9426
  },
  {
    "name": "Kolkata",
    "country": "India",
    "lat": 22.5726,
    "lon": 88.3639
  },
  {
    "name": "Vancouver",
    "country": "Canada",
    "lat": 49.2827,
    "lon": -123.1207
  },
  {
    "name": "London",
    "country": "United Kingdom",
    "lat": 51.5074,
    "lon": -0.1278
  },
  {
    "name": "Istanbul",
    "country": "Turkey",
    "lat": 41.0082,
    "lon": 28.9784
  }
]
