[
  {
    "name": "Chengdu",
    "country": "China",
    "lat": 30.5728,
    "lon": 104.0668
  },
  {
    "name": "Budapest",
    "country": "Hungary",
    "lat": 47.4979,
    "lon": 19.0402
  },
  {
    "name": "Santiago",
    "country": "Chile",
    "lat": -33.4489,
    "lon": -70.6693
  },
  {
    "name": "Bogotá",
    "country": "Colombia",
    "lat": 4.711,
    "lon": -74.0721
  },
  {
    "name": "Dublin",
    "country": "Ireland",
    "lat": 53.3498,
    "lon": -6.2603
  }
]
