[
  {
    "name": "Amsterdam",
    "country": "Netherlands",
    "lat": 52.3676,
    "lon": 4.9041
  },
  {
    "name": "Budapest",
    "country": "Hungary",
    "lat": 47.4979,
    "lon": 19.0402
  },
  {
    "name": "Moscow",
    "country": "Russia",
    "lat": 55.7558,
    "lon": 37.6173
  },
  {
    "name": "Hong Kong",
    "country": "China",
    "lat": 22.3193,
    "lon": 114.1694
  },
  {
    "name": "Singapore",
    "country": "Singapore",
    "lat": 1.3521,
    "lon": 103.8198
  }
]
