[
  {
    "name": "Santiago",
    "country": "Chile",
    "lat": -33.4489,
    "lon": -70.6693
  },
  {
    "name": "Mumbai",
    "country": "India",
    "lat": 19.076,
    "lon": 72.8777
  },
  {
    "name": "Manila",
    "country": "Philippines",
    "lat": 14.5995,
    "lon": 120.9842
  },
  {
    "name": "Casablanca",
    "country": "Morocco",
    "lat": 33.5731,
    "lon": -7.5898
  },
  {
    "name": "Lisbon",
    "country": "Portugal",
    "lat": 38.7223,
    "lon": -9.1393
  }
]
