[
  {
    "name": "Moscow",
    "country": "Russia",
    "lat": 55.7558,
    "lon": 37.6173
  },
  {
    "name": "Prague",
    "country": "Czechia",
    "lat": 50.0755,
    "lon": 14.4378
  },
  {
    "name": "Amsterdam",
    "country": "Netherlands",
    "lat": 52.3676,
    "lon": 4.9041
  },
  {
    "name": "Johannesburg",
    "country": "South Africa",
    "lat": -26.2041,
    "lon": 28.0473
  },
  {
    "name": "São Paulo",
    "country": "Brazil",
    "lat": -23.5505,
    "lon": -46.6333
  }
]
