[
  {
    "name": "Bangkok",
    "country": "Thailand",
    "lat": 13.7563,
    "lon": 100.5018
  },
  {
    "name": "Los Angeles",
    "country": "United States",
    "lat": 34.0522,
    "lon": -118.2437
  },
  {
    "name": "Melbourne",
    "country": "Australia",
    "lat": -37.8136,
    "lon": 144.9631
  },
  {
    "name": "Dublin",
    "country": "Ireland",
    "lat": 53.3498,
    "lon": -6.2603
  },
  {
    "name": "Warsaw",
    "country": "Poland",
    "lat": 52.2297,
    "lon": 21.0122
  }
]
