[
  {
    "name": "Havana",
    "country": "Cuba",
    "lat": 23.1136,
    "lon": -82.3666
  },
  {
    "name": "Reykjavík",
    "country": "Iceland",
    "lat": 64.1466,
    "lon": -21.9426
  },
  {
    "name": "Warsaw",
    "country": "Poland",
    "lat": 52.2297,
    "lon": 21.0122
  },
  {
    "name": "Hong Kong",
    "country": "China",
    "lat": 22.3193,
    "lon": 114.1694
  },
  {
    "name": "Beijing",
    "country": "China",
    "lat": 39.9042,
    "lon": 116.4074
  }
]
