[
  {
    "name": "Jakarta",
    "country": "Indonesia",
    "lat": -6.2088,
    "lon": 106.8456
  },
  {
    "name": "Seoul",
    "country": "South Korea",
    "lat": 37.5665,
    "lon": 126.978
  },
  {
    "name": "Rome",
    "country": "Italy",
    "lat": 41.9028,
    "lon": 12.4964
  },
  {
    "name": "Lisbon",
    "country": "Portugal",
    "lat": 38.7223,
    "lon": -9.1393
  },
  {
    "name": "Cape Town",
    "country": "South Africa",
    "lat": -33.9249,
    "lon": 18.4241
  }
]
