[
  {
    "name": "Los Angeles",
    "country": "United States",
    "lat": 34.0522,
    "lon": -118.2437
  },
  {
    "name": "Helsinki",
    "country": "Finland",
    "lat": 60.1699,
    "lon": 24.9384
  },
  {
    "name": "Paris",
    "country": "France",
    "lat": 48.8566,
    "lon": 2.3522
  },
  {
    "name": "Madrid",
    "country": "Spain",
    "lat": 40.4168,
    "lon": -3.7038
  },
  {
    "name": "Anchorage",
    "country": "United States",
    "lat": 61.2181,
    "lon": -149.9003
  }
]
