[
  {
    "name": "Chicago",
    "country": "United States",
    "lat": 41.8781,
    "lon": -87.6298
  },
  {
    "name": "Oslo",
    "country": "Norway",
    "lat": 59.9139,
    "lon": 10.7522
  },
  {
    "name": "London",
    "country": "United Kingdom",
    "lat": 51.5074,
    "lon": -0.1278
  },
  {
    "name": "Tehran",
    "country": "Iran",
    "lat": 35.6892,
    "lon": 51.389
  },
  {
    "name": "Beijing",
    "country": "China",
    "lat": 39.9042,
    "lon": 116.4074
  }
]
