[
  {
    "name": "Riyadh",
    "country": "Saudi Arabia",
    "lat": 24.7136,
    "lon": 46.6753
  },
  {
    "name": "Athens",
    "country": "Greece",
    "lat": 37.9838,
    "lon": 23.7275
  },
  {
    "name": "Los Angeles",
    "country": "United States",
    "lat": 34.0522,
    "lon": -118.2437
  },
  {
    "name": "Budapest",
    "country": "Hungary",
    "lat": 47.4979,
    "lon": 19.0402
  },
  {
    "name": "Nagoya",
    "country": "Japan",
    "lat": 35.1815,
    "lon": 136.9066
  }
]
