[
  {
    "name": "Sydney",
    "country": "Australia",
    "lat": -33.8688,
    "lon": 151.2093
  },
  {
    "name": "Nagoya",
    "country": "Japan",
    "lat": 35.1815,
    "lon": 136.9066
  },
  {
    "name": "Cape Town",
    "country": "South Africa",
    "lat": -33.9249,
    "lon": 18.4241
  },
  {
    "name": "Osaka",
    "country": "Japan",
    "lat": 34.6937,
    "lon": 135.5023
  },
  {
    "name": "Seoul",
    "country": "South Korea",
    "lat": 37.5665,
    "lon": 126.978
  }
]
