[
  {
    "name": "Tehran",
    "country": "Iran",
    "lat": 35.6892,
    "lon": 51.389
  },
  {
    "name": "Berlin",
    "country": "Germany",
    "lat": 52.52,
    "lon": 13.405
  },
  {
    "name": "Bangkok",
    "country": "Thailand",
    "lat": 13.7563,
    "lon": 100.5018
  },
  {
    "name": "Dubai",
    "country": "United Arab Emirates",
    "lat": 25.2048,
    "lon": 55.2708
  },
  {
    "name": "Shanghai",
    "country": "China",
    "lat": 31.2304,
    "lon": 121.4737
  }
]
