[
  {
    "name": "Anchorage",
    "country": "United States",
    "lat": 61.2181,
    "lon": -149.9003
  },
  {
    "name": "Honolulu",
    "country": "United States",
    "lat": 21.3099,
    "lon": -157.8581
  },
  {
    "name": "Karachi",
    "country": "Pakistan",
    "lat": 24.8607,
    "lon": 67.0011
  },
  {
    "name": "Vienna",
    "country": "Austria",
    "lat": 48.2082,
    "lon": 16.3738
  },
  {
    "name": "Prague",
    "country": "Czechia",
    "lat": 50.0755,
    "lon": 14.4378
  }
]
