[
  {
    "name": "Amsterdam",
    "country": "Netherlands",
    "lat": 52.3676,
    "lon": 4.9041
  },
  {
    "name": "Delhi",
    "country": "India",
    "lat": 28.7041,
    "lon": 77.1025
  },
  {
    "name": "Dubai",
    "country": "United Arab Emirates",
    "lat": 25.2048,
    "lon": 55.2708
  },
  {
    "name": "Johannesburg",
    "country": "South Africa",
    "lat": -26.2041,
    "lon": 28.0473
  },
  {
    "name": "Paris",
    "country": "France",
    "lat": 48.8566,
    "lon": 2.3522
  }
]
