[
  {
    "name": "Berlin",
    "country": "Germany",
    "lat": 52.52,
    "lon": 13.405
  },
  {
    "name": "Tehran",
    "country": "Iran",
    "lat": 35.6892,
    "lon": 51.389
  },
  {
    "name": "Bangkok",
    "country": "Thailand",
    "lat": 13.7563,
    "lon": 100.5018
  },
  {
    "name": "Lisbon",
    "country": "Portugal",
    "lat": 38.7223,
    "lon": -9.1393
  },
  {
    "name": "Lagos",
    "country": "Nigeria",
    "lat": 6.5244,
    "lon": 3.3792
  }
]
